[
  {
      "name": "서울특별시 종로구 청운효자동",
      "adm_cd": "11110515",
      "lat": 45.3874,
      "lng": 19.7342
  },
  {
      "name": "서울특별시 종로구 사직동",
      "adm_cd": "11110530",
      "lat": 45.2705,
      "lng": 19.7383
  },
  {
      "name": "서울특별시 종로구 삼청동",
      "adm_cd": "11110540",
      "lat": 45.4312,
      "lng": 19.834
  },
  {
      "name": "서울특별시 종로구 부암동",
      "adm_cd": "11110550",
      "lat": 45.5266,
      "lng": 19.6781
  },
  {
      "name": "서울특별시 종로구 평창동",
      "adm_cd": "11110560",
      "lat": 45.7344,
      "lng": 19.7186
  },
  {
      "name": "서울특별시 종로구 무악동",
      "adm_cd": "11110570",
      "lat": 45.3063,
      "lng": 19.6342
  },
  {
      "name": "서울특별시 종로구 교남동",
      "adm_cd": "11110580",
      "lat": 45.2392,
      "lng": 19.683
  },
  {
      "name": "서울특별시 종로구 가회동",
      "adm_cd": "11110600",
      "lat": 45.3662,
      "lng": 19.8812
  },
  {
      "name": "서울특별시 종로구 종로1·2·3·4가동",
      "adm_cd": "11110615",
      "lat": 45.2849,
      "lng": 19.9104
  },
  {
      "name": "서울특별시 종로구 종로5·6가동",
      "adm_cd": "11110630",
      "lat": 45.259,
      "lng": 20.0389
  }
]