[
  {
      "name": "서울특별시 강동구",
      "lat": 37.5666103,
      "lng": 126.9783882
  },
  {
      "name": "서울특별시 송파구",
      "lat": 37.5145636,
      "lng": 127.1059186
  },
  {
      "name": "서울특별시 강남구",
      "lat": 37.517305,
      "lng": 127.047502
  },
  {
      "name": "서울특별시 서초구",
      "lat": 37.483569,
      "lng": 127.032598
  },
  {
      "name": "서울특별시 관악구",
      "lat": 37.4781549,
      "lng": 126.9514847
  },
  {
      "name": "서울특별시 동작구",
      "lat": 37.51245,
      "lng": 126.9395
  },
  {
      "name": "서울특별시 영등포구",
      "lat": 37.526436,
      "lng": 126.896004
  },
  {
      "name": "서울특별시 금천구",
      "lat": 37.4568644,
      "lng": 126.8955105
  },
  {
      "name": "서울특별시 구로구",
      "lat": 37.495472,
      "lng": 126.887536
  },
  {
      "name": "서울특별시 강서구",
      "lat": 37.550937,
      "lng": 126.849642
  },
  {
      "name": "서울특별시 양천구",
      "lat": 37.517016,
      "lng": 126.866642
  },
  {
      "name": "서울특별시 마포구",
      "lat": 37.5663245,
      "lng": 126.901491
  },
  {
      "name": "서울특별시 서대문구",
      "lat": 37.579225,
      "lng": 126.9368
  },
  {
      "name": "서울특별시 은평구",
      "lat": 37.602784,
      "lng": 126.929164
  },
  {
      "name": "서울특별시 노원구",
      "lat": 37.654358,
      "lng": 127.056473
  },
  {
      "name": "서울특별시 도봉구",
      "lat": 37.668768,
      "lng": 127.047163
  },
  {
      "name": "서울특별시 강북구",
      "lat": 37.6397819,
      "lng": 127.0256135
  },
  {
      "name": "서울특별시 성북구",
      "lat": 37.5894,
      "lng": 127.016749
  },
  {
      "name": "서울특별시 중랑구",
      "lat": 37.6063242,
      "lng": 127.0925842
  },
  {
      "name": "서울특별시 동대문구",
      "lat": 37.574524,
      "lng": 127.03965
  },
  {
      "name": "서울특별시 광진구",
      "lat": 37.538617,
      "lng": 127.082375
  },
  {
      "name": "서울특별시 성동구",
      "lat": 37.563456,
      "lng": 127.036821
  },
  {
      "name": "서울특별시 용산구",
      "lat": 37.532527,
      "lng": 126.99049
  },
  {
      "name": "서울특별시 중구",
      "lat": 37.563843,
      "lng": 126.997602
  },
  {
      "name": "서울특별시 종로구",
      "lat": 37.5735207,
      "lng": 126.9788345
  }
]