[
  {
    "name": "서울특별시 강동구",
    "lat": 37.5666103,
    "lng": 126.9783882,
    "sgg_cd": "11740"
  },
  {
    "name": "서울특별시 송파구",
    "lat": 37.5145636,
    "lng": 127.1059186,
    "sgg_cd": "11710"
  },
  {
    "name": "서울특별시 강남구",
    "lat": 37.517305,
    "lng": 127.047502,
    "sgg_cd": "11680"
  },
  {
    "name": "서울특별시 서초구",
    "lat": 37.483569,
    "lng": 127.032598,
    "sgg_cd": "11650"
  },
  {
    "name": "서울특별시 관악구",
    "lat": 37.4781549,
    "lng": 126.9514847,
    "sgg_cd": "11620"
  },
  {
    "name": "서울특별시 동작구",
    "lat": 37.51245,
    "lng": 126.9395,
    "sgg_cd": "11590"
  },
  {
    "name": "서울특별시 영등포구",
    "lat": 37.526436,
    "lng": 126.896004,
    "sgg_cd": "11560"
  },
  {
    "name": "서울특별시 금천구",
    "lat": 37.4568644,
    "lng": 126.8955105,
    "sgg_cd": "11545"
  },
  {
    "name": "서울특별시 구로구",
    "lat": 37.495472,
    "lng": 126.887536,
    "sgg_cd": "11530"
  },
  {
    "name": "서울특별시 강서구",
    "lat": 37.550937,
    "lng": 126.849642,
    "sgg_cd": "11500"
  },
  {
    "name": "서울특별시 양천구",
    "lat": 37.517016,
    "lng": 126.866642,
    "sgg_cd": "11470"
  },
  {
    "name": "서울특별시 마포구",
    "lat": 37.5663245,
    "lng": 126.901491,
    "sgg_cd": "11440"
  },
  {
    "name": "서울특별시 서대문구",
    "lat": 37.579225,
    "lng": 126.9368,
    "sgg_cd": "11410"
  },
  {
    "name": "서울특별시 은평구",
    "lat": 37.602784,
    "lng": 126.929164,
    "sgg_cd": "11380"
  },
  {
    "name": "서울특별시 노원구",
    "lat": 37.654358,
    "lng": 127.056473,
    "sgg_cd": "11350"
  },
  {
    "name": "서울특별시 도봉구",
    "lat": 37.668768,
    "lng": 127.047163,
    "sgg_cd": "11320"
  },
  {
    "name": "서울특별시 강북구",
    "lat": 37.6397819,
    "lng": 127.0256135,
    "sgg_cd": "11305"
  },
  {
    "name": "서울특별시 성북구",
    "lat": 37.5894,
    "lng": 127.016749,
    "sgg_cd": "11290"
  },
  {
    "name": "서울특별시 중랑구",
    "lat": 37.6063242,
    "lng": 127.0925842,
    "sgg_cd": "11260"
  },
  {
    "name": "서울특별시 동대문구",
    "lat": 37.574524,
    "lng": 127.03965,
    "sgg_cd": "11230"
  },
  {
    "name": "서울특별시 광진구",
    "lat": 37.538617,
    "lng": 127.082375,
    "sgg_cd": "11215"
  },
  {
    "name": "서울특별시 성동구",
    "lat": 37.563456,
    "lng": 127.036821,
    "sgg_cd": "11200"
  },
  {
    "name": "서울특별시 용산구",
    "lat": 37.532527,
    "lng": 126.99049,
    "sgg_cd": "11170"
  },
  {
    "name": "서울특별시 중구",
    "lat": 37.563843,
    "lng": 126.997602,
    "sgg_cd": "11140"
  },
  {
    "name": "서울특별시 종로구",
    "lat": 37.5735207,
    "lng": 126.9788345,
    "sgg_cd": "11110"
  }
]
